[
  {
    "name": "JR新宿駅地下1階コインロッカー(東口・中央東口)",
    "lat": 35.689223,
    "lng": 139.700951,
    "description": "歌舞伎町から最も近い大型ロッカー群。新宿駅全体で約3,600個。大型ロッカーは午前10時までに満杯になることが多いです。",
    "category": "coin_locker",
    "tags": [
      "medium",
      "large",
      "suitcase_ok"
    ],
    "last_updated": "2026-07-11",
    "reliability_score": 4,
    "source_type": "official",
    "type": "official",
    "verification_method": "web-search-2026-07"
  },
  {
    "name": "JR新宿駅東口地下通路コインロッカー",
    "lat": 35.689223,
    "lng": 139.700951,
    "description": "東口改札そばの地下通路、4ヶ所に分かれた計8台のロッカー群。",
    "category": "coin_locker",
    "tags": [
      "small",
      "medium",
      "suitcase_ok"
    ],
    "last_updated": "2026-07-11",
    "reliability_score": 4,
    "source_type": "observed",
    "type": "official",
    "verification_method": "web-search-2026-07"
  },
  {
    "name": "ルミネエスト新宿1階コインロッカー",
    "lat": 35.689223,
    "lng": 139.700951,
    "description": "東口タクシー乗り場周辺、ルミネエスト新宿の外壁沿い、および改札そばのロッカー群。",
    "category": "coin_locker",
    "tags": [
      "small",
      "medium",
      "large",
      "suitcase_ok"
    ],
    "last_updated": "2026-07-11",
    "reliability_score": 4,
    "source_type": "observed",
    "type": "official",
    "verification_method": "web-search-2026-07"
  },
  {
    "name": "JR新宿駅西口地下広場コインロッカー",
    "lat": 35.6909,
    "lng": 139.698141,
    "description": "新宿駅最大のロッカー群。131個のロッカーのうち17個が大型サイズ。",
    "category": "coin_locker",
    "tags": [
      "small",
      "medium",
      "large",
      "suitcase_ok"
    ],
    "last_updated": "2026-07-11",
    "reliability_score": 4,
    "source_type": "observed",
    "type": "official",
    "verification_method": "web-search-2026-07"
  },
  {
    "name": "JR新宿駅南口コンコースコインロッカー",
    "lat": 35.6893,
    "lng": 139.7005,
    "description": "南口改札の内外に複数のロッカー群があり、地下階には階段・エスカレーターでアクセスするロッカー群もあります。",
    "category": "coin_locker",
    "tags": [
      "small",
      "medium",
      "large",
      "suitcase_ok"
    ],
    "last_updated": "2026-07-11",
    "reliability_score": 3,
    "source_type": "observed",
    "type": "official",
    "verification_method": "web-search-2026-07",
    "coord_verified": "verified"
  },
  {
    "name": "西武新宿駅北口コインロッカー",
    "lat": 35.6952,
    "lng": 139.6994,
    "description": "北口の券売機付近、キャッシュレス専用(ICカードまたはSPACERアプリ)のロッカー。S/M/L/XLが4時間ごと100円/200円/300円/400円、営業時間7:00〜23:59、保管上限96時間。",
    "category": "coin_locker",
    "tags": [
      "small",
      "medium",
      "large",
      "suitcase_ok"
    ],
    "last_updated": "2026-07-11",
    "reliability_score": 4,
    "source_type": "official",
    "type": "official",
    "verification_method": "web-search-2026-07",
    "coord_verified": "verified"
  },
  {
    "name": "西武新宿駅地下通路・サブナードロッカー",
    "lat": 35.6947,
    "lng": 139.6997,
    "description": "西武新宿駅と新宿サブナードを結ぶ地下通路にあるロッカー群。",
    "category": "coin_locker",
    "tags": [
      "small",
      "medium"
    ],
    "last_updated": "2026-07-11",
    "reliability_score": 3,
    "source_type": "official",
    "type": "official",
    "verification_method": "web-search-2026-07",
    "coord_verified": "verified"
  },
  {
    "name": "東急歌舞伎町タワー地下1階コインロッカー",
    "lat": 35.6963,
    "lng": 139.7033,
    "description": "歌舞伎町一番街アーチ入口から徒歩約1分、地下1階の24時間利用可能な大型ロッカー群(300台超)。",
    "category": "coin_locker",
    "tags": [
      "medium",
      "large",
      "suitcase_ok",
      "24h"
    ],
    "last_updated": "2026-07-17",
    "reliability_score": 3,
    "source_type": "observed",
    "type": "unofficial",
    "verification_method": "coord-review-2026-07-17",
    "gray_zone_note": "東急歌舞伎町タワー公式FAQには掲載されておらず(公式には1階の有人手荷物預かりのみ案内)、複数の旅行ガイドが独自に報告している情報です。施設側による確認は取れていないため、現地で確認してからご利用ください。",
    "coord_verified": "corrected"
  },
  {
    "name": "東急歌舞伎町タワー4階シネマフロアロッカー",
    "lat": 35.6963,
    "lng": 139.7033,
    "description": "映画館フロアのエレベーター横にある電子決済専用の小型ロッカー。小型200円/中型300円、利用制限180分、主に映画鑑賞者向け。",
    "category": "coin_locker",
    "tags": [
      "small",
      "medium"
    ],
    "last_updated": "2026-07-17",
    "reliability_score": 3,
    "source_type": "observed",
    "type": "official",
    "verification_method": "coord-review-2026-07-17",
    "coord_verified": "corrected"
  },
  {
    "name": "東急歌舞伎町タワー10階(109シネマズプレミアム新宿)ロッカー",
    "lat": 35.6963,
    "lng": 139.7033,
    "description": "10階109シネマズプレミアム新宿フロア、エレベーター横のキャッシュレス専用ロッカー(IC/タッチ/QR対応)。",
    "category": "coin_locker",
    "tags": [
      "small",
      "medium"
    ],
    "last_updated": "2026-07-17",
    "reliability_score": 3,
    "source_type": "observed",
    "type": "official",
    "verification_method": "coord-review-2026-07-17",
    "coord_verified": "corrected"
  },
  {
    "name": "Zepp新宿ロッカー(地下1階・地下4階)",
    "lat": 35.6963,
    "lng": 139.7033,
    "description": "東急歌舞伎町タワー地下のライブ会場内ロッカー、計840台(地下1階690台、地下4階150台)。現金専用400円、両替機あり。入場後のみ利用可能で、入場前の荷物預かりには使えません。",
    "category": "coin_locker",
    "tags": [
      "small",
      "medium"
    ],
    "last_updated": "2026-07-17",
    "reliability_score": 4,
    "source_type": "observed",
    "type": "official",
    "verification_method": "coord-review-2026-07-17",
    "coord_verified": "corrected"
  },
  {
    "name": "ヒューマックスパビリオン新宿歌舞伎町 コインロッカー",
    "lat": 35.695877,
    "lng": 139.70159,
    "description": "東急歌舞伎町タワーから徒歩約1分、レジャービル内の24時間利用可能な現金専用ロッカー。小型300円/中型400円。",
    "category": "coin_locker",
    "tags": [
      "small",
      "medium",
      "24h"
    ],
    "last_updated": "2026-07-11",
    "reliability_score": 3,
    "source_type": "observed",
    "type": "official",
    "verification_method": "web-search-2026-07"
  },
  {
    "name": "ホテルWAKO新宿 駐車場脇コインロッカー",
    "lat": 35.6958,
    "lng": 139.6998,
    "description": "西武新宿駅北口からホテル街方面へ徒歩約3分、ホテルWAKO駐車場入口脇の路上コインロッカー。",
    "category": "coin_locker",
    "tags": [
      "small",
      "medium"
    ],
    "last_updated": "2026-07-11",
    "reliability_score": 2,
    "source_type": "observed",
    "type": "official",
    "verification_method": "web-search-2026-07",
    "coord_verified": "verified"
  },
  {
    "name": "アドホック新宿ビル コインロッカー",
    "lat": 35.692804,
    "lng": 139.703283,
    "description": "東京メトロ副都心線新宿三丁目駅B8・B9出口から徒歩約1分、歌舞伎町南端。2階エレベーター前と階段脇の2ヶ所にロッカー群があります。",
    "category": "coin_locker",
    "tags": [
      "small",
      "medium"
    ],
    "last_updated": "2026-07-11",
    "reliability_score": 3,
    "source_type": "observed",
    "type": "official",
    "verification_method": "web-search-2026-07"
  },
  {
    "name": "マンボー歌舞伎町ネットルーム入口ロッカー",
    "lat": 35.696,
    "lng": 139.7048,
    "description": "西武新宿駅・東新宿駅から徒歩約5分、インターネットカフェ「マンボー」入口そばのコインロッカー。",
    "category": "coin_locker",
    "tags": [
      "small"
    ],
    "last_updated": "2026-07-17",
    "reliability_score": 2,
    "source_type": "observed",
    "type": "official",
    "verification_method": "coord-review-2026-07-17",
    "coord_verified": "corrected"
  },
  {
    "name": "ゴジラロード・カラオケ館歌舞伎町本店入口ロッカー",
    "lat": 35.694352,
    "lng": 139.701624,
    "description": "地区中心の通り「ゴジラロード」沿い、カラオケ館歌舞伎町本店入口のコインロッカー。運営はフジサービス。",
    "category": "coin_locker",
    "tags": [
      "small",
      "medium"
    ],
    "last_updated": "2026-07-11",
    "reliability_score": 3,
    "source_type": "observed",
    "type": "official",
    "verification_method": "web-search-2026-07"
  },
  {
    "name": "ecboクローク — H.F.歌舞伎町ビル(1-2-2)",
    "lat": 35.6944,
    "lng": 139.7015,
    "description": "歌舞伎町内(1-2-2)にある、アプリ予約制・コインロッカー並み料金の有人手荷物預かりサービス。物理ロッカーと違いサイズ上限が厳格でなく、スーツケース対応。ロッカーに入らない大きな荷物の代替手段として最適。",
    "category": "coin_locker",
    "tags": [
      "large",
      "suitcase_ok",
      "suitcase_too_big"
    ],
    "last_updated": "2026-07-11",
    "reliability_score": 4,
    "source_type": "official",
    "type": "official",
    "verification_method": "web-search-2026-07",
    "coord_verified": "verified"
  }
]
