[
  {
    "name": "新宿駅西口 喫煙所",
    "lat": 35.6905,
    "lng": 139.6995,
    "description": "西口ロータリー付近、24時間利用可能な屋外指定喫煙所。分煙パネルあり。歌舞伎町から最も近い大型の公式喫煙エリア。",
    "category": "smoking",
    "tags": [
      "outdoor",
      "rain_ok",
      "crowded"
    ],
    "last_updated": "2026-07-11",
    "reliability_score": 4,
    "source_type": "official",
    "type": "official",
    "verification_method": "web-search-2026-07",
    "gray_zone_note": null
  },
  {
    "name": "喫茶室ルノアール(新宿東宝シネマズ前店)",
    "lat": 35.6949,
    "lng": 139.7028,
    "description": "歌舞伎町内(川新ビル2F)の有料喫茶店。屋内喫煙室あり。利用には注文が必要です。",
    "category": "smoking",
    "tags": [
      "indoor",
      "rain_ok"
    ],
    "last_updated": "2026-07-11",
    "reliability_score": 3,
    "source_type": "observed",
    "type": "unofficial",
    "verification_method": "web-search-2026-07",
    "gray_zone_note": "有料での注文が必要です。無料の公共喫煙所ではありません。"
  },
  {
    "category": "smoking",
    "name": "シネシティ広場前 公衆喫煙所",
    "lat": 35.6949,
    "lng": 139.7025,
    "description": "歌舞伎町シネシティ広場近くの区管理屋外指定喫煙所。無料、24時間利用可。",
    "tags": [
      "outdoor",
      "rain_ok",
      "crowded"
    ],
    "reliability_score": 3,
    "source_type": "observed",
    "type": "official",
    "gray_zone_note": null,
    "last_updated": "2026-07-11",
    "verification_method": "web-search-2026-07"
  },
  {
    "category": "smoking",
    "name": "歌舞伎町一丁目3-7 公衆喫煙所",
    "lat": 35.6944,
    "lng": 139.7033,
    "description": "歌舞伎町一丁目3-7番地にある屋外指定喫煙所。",
    "tags": [
      "outdoor",
      "rain_ok"
    ],
    "reliability_score": 3,
    "source_type": "observed",
    "type": "official",
    "gray_zone_note": null,
    "last_updated": "2026-07-11",
    "verification_method": "web-search-2026-07"
  },
  {
    "category": "smoking",
    "name": "大ガード沿い路上喫煙所",
    "lat": 35.6928,
    "lng": 139.6989,
    "description": "西新宿7-1-1、歌舞伎町南西の境界付近にある屋外喫煙所。新宿駅側から向かう際に最も近い。",
    "tags": [
      "outdoor",
      "rain_ok",
      "crowded"
    ],
    "reliability_score": 3,
    "source_type": "observed",
    "type": "official",
    "gray_zone_note": "歌舞伎町の境界付近にあり、地区内ではありません。",
    "last_updated": "2026-07-11",
    "verification_method": "web-search-2026-07"
  },
  {
    "category": "smoking",
    "name": "喫茶室ルノアール(新宿大ガード横店)",
    "lat": 35.6929,
    "lng": 139.6987,
    "description": "加熱式タバコ対応の喫煙席がある有料喫茶店チェーン。歌舞伎町・西新宿の境界付近に位置。",
    "tags": [
      "indoor",
      "rain_ok"
    ],
    "reliability_score": 3,
    "source_type": "observed",
    "type": "unofficial",
    "gray_zone_note": "有料での注文が必要です。歌舞伎町の境界付近にあります。",
    "last_updated": "2026-07-11",
    "verification_method": "web-search-2026-07"
  },
  {
    "category": "smoking",
    "name": "ニコバー新宿店",
    "lat": 35.6939,
    "lng": 139.7038,
    "description": "歌舞伎町1-2-13のバー。全席喫煙可、営業時間17:00〜翌5:00。",
    "tags": [
      "indoor"
    ],
    "reliability_score": 3,
    "source_type": "observed",
    "type": "unofficial",
    "gray_zone_note": "バーへの入店が必要です。単独の喫煙所ではありません。",
    "last_updated": "2026-07-11",
    "verification_method": "web-search-2026-07"
  },
  {
    "category": "smoking",
    "name": "アルバトロスG(ゴールデン街)",
    "lat": 35.6931,
    "lng": 139.7043,
    "description": "ゴールデン街(歌舞伎町1-1-7、5番街ビル2F)のバー。28席、全席喫煙可、19:00〜翌5:00営業。",
    "tags": [
      "indoor",
      "hidden"
    ],
    "reliability_score": 3,
    "source_type": "observed",
    "type": "unofficial",
    "gray_zone_note": "バーへの入店・オーダーが必要です。ゴールデン街の狭い路地からのアクセスとなります。",
    "last_updated": "2026-07-11",
    "verification_method": "web-search-2026-07"
  },
  {
    "category": "smoking",
    "name": "バー ガス燈",
    "lat": 35.6947,
    "lng": 139.7027,
    "description": "歌舞伎町1-4-12のバー。12席、喫煙可、月〜土19:00〜翌5:00営業。",
    "tags": [
      "indoor"
    ],
    "reliability_score": 3,
    "source_type": "observed",
    "type": "unofficial",
    "gray_zone_note": "バーへの入店が必要です。",
    "last_updated": "2026-07-11",
    "verification_method": "web-search-2026-07"
  },
  {
    "category": "smoking",
    "name": "一軒め酒場 歌舞伎町店",
    "lat": 35.6958,
    "lng": 139.701,
    "description": "歌舞伎町1-17-1(栗田ビルB1)の24時間営業居酒屋。52席、全席喫煙可。",
    "tags": [
      "indoor",
      "crowded"
    ],
    "reliability_score": 4,
    "source_type": "observed",
    "type": "unofficial",
    "gray_zone_note": "飲食のご注文が必要です。",
    "last_updated": "2026-07-11",
    "verification_method": "web-search-2026-07"
  },
  {
    "category": "smoking",
    "name": "新宿駄菓子バー",
    "lat": 35.6952,
    "lng": 139.702,
    "description": "歌舞伎町1-6-2(Tウイング5F)の居酒屋バー。90席、全席喫煙可、駄菓子屋レトロテーマ。",
    "tags": [
      "indoor",
      "crowded"
    ],
    "reliability_score": 3,
    "source_type": "observed",
    "type": "unofficial",
    "gray_zone_note": "オーダーまたはチャージ料が必要です。",
    "last_updated": "2026-07-11",
    "verification_method": "web-search-2026-07"
  },
  {
    "category": "smoking",
    "name": "居酒屋一休 新宿歌舞伎町店",
    "lat": 35.696,
    "lng": 139.7008,
    "description": "歌舞伎町1-18-8(第一モナミビル2F)の大型居酒屋。150席、全席喫煙可。",
    "tags": [
      "indoor",
      "crowded"
    ],
    "reliability_score": 3,
    "source_type": "observed",
    "type": "unofficial",
    "gray_zone_note": "オーダーが必要です。",
    "last_updated": "2026-07-11",
    "verification_method": "web-search-2026-07"
  },
  {
    "category": "smoking",
    "name": "焼肉にくの音",
    "lat": 35.6959,
    "lng": 139.7012,
    "description": "歌舞伎町1-19-3(8F)の焼肉店。29席+個室あり、全席喫煙可。",
    "tags": [
      "indoor"
    ],
    "reliability_score": 3,
    "source_type": "observed",
    "type": "unofficial",
    "gray_zone_note": "お食事のご注文が必要です。",
    "last_updated": "2026-07-11",
    "verification_method": "web-search-2026-07"
  },
  {
    "category": "smoking",
    "name": "ゴールデン街 MISO SOUP",
    "lat": 35.6931,
    "lng": 139.7043,
    "description": "ゴールデン街(歌舞伎町1-1-9、花園一番街)のバー。15席、全席喫煙可、19:00〜翌5:00営業。",
    "tags": [
      "indoor",
      "hidden"
    ],
    "reliability_score": 2,
    "source_type": "observed",
    "type": "unofficial",
    "gray_zone_note": "非常に小さなバーです。チャージ料やバー入店マナーにご留意ください。",
    "last_updated": "2026-07-11",
    "verification_method": "web-search-2026-07"
  },
  {
    "category": "smoking",
    "name": "クラクラ PART II",
    "lat": 35.6931,
    "lng": 139.7043,
    "description": "ゴールデン街(歌舞伎町1-1-9)のバー。40席、全席喫煙可、19:00〜翌2:00営業。",
    "tags": [
      "indoor",
      "hidden"
    ],
    "reliability_score": 2,
    "source_type": "observed",
    "type": "unofficial",
    "gray_zone_note": "バーへの入店が必要です。他の店舗より遅くまで営業しています。",
    "last_updated": "2026-07-11",
    "verification_method": "web-search-2026-07"
  },
  {
    "category": "smoking",
    "name": "焼肉一丁目",
    "lat": 35.6963,
    "lng": 139.6998,
    "description": "歌舞伎町1-26-1(風月会館ビル2F)の焼肉店。46席、全席喫煙可。",
    "tags": [
      "indoor"
    ],
    "reliability_score": 3,
    "source_type": "observed",
    "type": "unofficial",
    "gray_zone_note": "お食事のご注文が必要です。",
    "last_updated": "2026-07-11",
    "verification_method": "web-search-2026-07"
  },
  {
    "category": "smoking",
    "name": "お通 新宿歌舞伎町店",
    "lat": 35.6936,
    "lng": 139.7015,
    "description": "歌舞伎町1-11(いくざすビル2F)の24時間営業雑炊・お粥店。30席、全席喫煙可。",
    "tags": [
      "indoor",
      "rain_ok"
    ],
    "reliability_score": 3,
    "source_type": "observed",
    "type": "unofficial",
    "gray_zone_note": "オーダーが必要です。24時間営業のため深夜の選択肢として便利です。",
    "last_updated": "2026-07-11",
    "verification_method": "web-search-2026-07"
  }
]
